{
  "type": "FeatureCollection",
  "features": [
    {
      "type": "Feature",
      "properties": {
        "NumSum": 2,
        "City": "Aitkin",
        "State": "MN"
      },
      "geometry": {
        "type": "Point",
        "coordinates": [
          -93.7102,
          46.533
        ]
      }
    },
    {
      "type": "Feature",
      "properties": {
        "NumSum": 1,
        "City": "Albert Lea",
        "State": "MN"
      },
      "geometry": {
        "type": "Point",
        "coordinates": [
          -93.3683,
          43.648
        ]
      }
    },
    {
      "type": "Feature",
      "properties": {
        "NumSum": 2,
        "City": "Alexandria",
        "State": "MN"
      },
      "geometry": {
        "type": "Point",
        "coordinates": [
          -95.3775,
          45.8852
        ]
      }
    },
    {
      "type": "Feature",
      "properties": {
        "NumSum": 1,
        "City": "Anoka",
        "State": "MN"
      },
      "geometry": {
        "type": "Point",
        "coordinates": [
          -93.3872,
          45.1977
        ]
      }
    },
    {
      "type": "Feature",
      "properties": {
        "NumSum": 4,
        "City": "Apple Valley",
        "State": "MN"
      },
      "geometry": {
        "type": "Point",
        "coordinates": [
          -93.2177,
          44.7319
        ]
      }
    },
    {
      "type": "Feature",
      "properties": {
        "NumSum": 1,
        "City": "Appleton",
        "State": "WI"
      },
      "geometry": {
        "type": "Point",
        "coordinates": [
          -88.4153,
          44.2619
        ]
      }
    },
    {
      "type": "Feature",
      "properties": {
        "NumSum": 3,
        "City": "Arden Hills",
        "State": "MN"
      },
      "geometry": {
        "type": "Point",
        "coordinates": [
          -93.1566,
          45.0502
        ]
      }
    },
    {
      "type": "Feature",
      "properties": {
        "NumSum": 1,
        "City": "Aurora",
        "State": "CO"
      },
      "geometry": {
        "type": "Point",
        "coordinates": [
          -104.8319,
          39.7294
        ]
      }
    },
    {
      "type": "Feature",
      "properties": {
        "NumSum": 1,
        "City": "Bagley",
        "State": "MN"
      },
      "geometry": {
        "type": "Point",
        "coordinates": [
          -95.3983,
          47.5216
        ]
      }
    },
    {
      "type": "Feature",
      "properties": {
        "NumSum": 1,
        "City": "Barnum",
        "State": "MN"
      },
      "geometry": {
        "type": "Point",
        "coordinates": [
          -92.6885,
          46.503
        ]
      }
    },
    {
      "type": "Feature",
      "properties": {
        "NumSum": 3,
        "City": "Baxter",
        "State": "MN"
      },
      "geometry": {
        "type": "Point",
        "coordinates": [
          -94.2867,
          46.3433
        ]
      }
    },
    {
      "type": "Feature",
      "properties": {
        "NumSum": 6,
        "City": "Bemidji",
        "State": "MN"
      },
      "geometry": {
        "type": "Point",
        "coordinates": [
          -94.8803,
          47.4736
        ]
      }
    },
    {
      "type": "Feature",
      "properties": {
        "NumSum": 3,
        "City": "Blaine",
        "State": "MN"
      },
      "geometry": {
        "type": "Point",
        "coordinates": [
          -93.2349,
          45.1608
        ]
      }
    },
    {
      "type": "Feature",
      "properties": {
        "NumSum": 6,
        "City": "Bloomington",
        "State": "MN"
      },
      "geometry": {
        "type": "Point",
        "coordinates": [
          -93.2983,
          44.8408
        ]
      }
    },
    {
      "type": "Feature",
      "properties": {
        "NumSum": 2,
        "City": "Brainerd",
        "State": "MN"
      },
      "geometry": {
        "type": "Point",
        "coordinates": [
          -94.2008,
          46.358
        ]
      }
    },
    {
      "type": "Feature",
      "properties": {
        "NumSum": 1,
        "City": "Brookings",
        "State": "SD"
      },
      "geometry": {
        "type": "Point",
        "coordinates": [
          -96.7983,
          44.3113
        ]
      }
    },
    {
      "type": "Feature",
      "properties": {
        "NumSum": 1,
        "City": "Brooklyn Center",
        "State": "MN"
      },
      "geometry": {
        "type": "Point",
        "coordinates": [
          -93.3327,
          45.0761
        ]
      }
    },
    {
      "type": "Feature",
      "properties": {
        "NumSum": 1,
        "City": "Brooklyn Park",
        "State": "MN"
      },
      "geometry": {
        "type": "Point",
        "coordinates": [
          -93.3563,
          45.0941
        ]
      }
    },
    {
      "type": "Feature",
      "properties": {
        "NumSum": 3,
        "City": "Buffalo",
        "State": "MN"
      },
      "geometry": {
        "type": "Point",
        "coordinates": [
          -93.8747,
          45.1719
        ]
      }
    },
    {
      "type": "Feature",
      "properties": {
        "NumSum": 1,
        "City": "Cambridge",
        "State": "MN"
      },
      "geometry": {
        "type": "Point",
        "coordinates": [
          -93.2244,
          45.5727
        ]
      }
    },
    {
      "type": "Feature",
      "properties": {
        "NumSum": 2,
        "City": "Carlton",
        "State": "MN"
      },
      "geometry": {
        "type": "Point",
        "coordinates": [
          -92.4249,
          46.6638
        ]
      }
    },
    {
      "type": "Feature",
      "properties": {
        "NumSum": 1,
        "City": "Cass Lake",
        "State": "MN"
      },
      "geometry": {
        "type": "Point",
        "coordinates": [
          -94.6041,
          47.3794
        ]
      }
    },
    {
      "type": "Feature",
      "properties": {
        "NumSum": 1,
        "City": "Cedar Falls",
        "State": "IA"
      },
      "geometry": {
        "type": "Point",
        "coordinates": [
          -92.4453,
          42.5348
        ]
      }
    },
    {
      "type": "Feature",
      "properties": {
        "NumSum": 2,
        "City": "Centennial",
        "State": "CO"
      },
      "geometry": {
        "type": "Point",
        "coordinates": [
          -104.8771,
          39.5807
        ]
      }
    },
    {
      "type": "Feature",
      "properties": {
        "NumSum": 1,
        "City": "Champlin",
        "State": "MN"
      },
      "geometry": {
        "type": "Point",
        "coordinates": [
          -93.3975,
          45.1889
        ]
      }
    },
    {
      "type": "Feature",
      "properties": {
        "NumSum": 1,
        "City": "Chanhassen",
        "State": "MN"
      },
      "geometry": {
        "type": "Point",
        "coordinates": [
          -93.5308,
          44.8622
        ]
      }
    },
    {
      "type": "Feature",
      "properties": {
        "NumSum": 7,
        "City": "Chaska",
        "State": "MN"
      },
      "geometry": {
        "type": "Point",
        "coordinates": [
          -93.6022,
          44.7894
        ]
      }
    },
    {
      "type": "Feature",
      "properties": {
        "NumSum": 1,
        "City": "Chesterfield",
        "State": "MO"
      },
      "geometry": {
        "type": "Point",
        "coordinates": [
          -90.5770,
          38.6631
        ]
      }
    },
    {
      "type": "Feature",
      "properties": {
        "NumSum": 1,
        "City": "Cincinnati",
        "State": "OH"
      },
      "geometry": {
        "type": "Point",
        "coordinates": [
          -84.5120,
          39.1031
        ]
      }
    },
    {
      "type": "Feature",
      "properties": {
        "NumSum": 1,
        "City": "Cleveland",
        "State": "OH"
      },
      "geometry": {
        "type": "Point",
        "coordinates": [
          -81.6943,
          41.4993
        ]
      }
    },
    {
      "type": "Feature",
      "properties": {
        "NumSum": 3,
        "City": "Cloquet",
        "State": "MN"
      },
      "geometry": {
        "type": "Point",
        "coordinates": [
          -92.4594,
          46.7216
        ]
      }
    },
    {
      "type": "Feature",
      "properties": {
        "NumSum": 1,
        "City": "Columbia Heights",
        "State": "MN"
      },
      "geometry": {
        "type": "Point",
        "coordinates": [
          -93.263,
          45.0408
        ]
      }
    },
    {
      "type": "Feature",
      "properties": {
        "NumSum": 1,
        "City": "Cook",
        "State": "MN"
      },
      "geometry": {
        "type": "Point",
        "coordinates": [
          -92.6896,
          47.8524
        ]
      }
    },
    {
      "type": "Feature",
      "properties": {
        "NumSum": 1,
        "City": "Coon Rapids",
        "State": "MN"
      },
      "geometry": {
        "type": "Point",
        "coordinates": [
          -93.2877,
          45.12
        ]
      }
    },
    {
      "type": "Feature",
      "properties": {
        "NumSum": 1,
        "City": "Crookston",
        "State": "MN"
      },
      "geometry": {
        "type": "Point",
        "coordinates": [
          -96.6081,
          47.7741
        ]
      }
    },
    {
      "type": "Feature",
      "properties": {
        "NumSum": 4,
        "City": "Dayton",
        "State": "OH"
      },
      "geometry": {
        "type": "Point",
        "coordinates": [
          -84.1916,
          39.7589
        ]
      }
    },
    {
      "type": "Feature",
      "properties": {
        "NumSum": 2,
        "City": "Deephaven",
        "State": "MN"
      },
      "geometry": {
        "type": "Point",
        "coordinates": [
          -93.5225,
          44.9297
        ]
      }
    },
    {
      "type": "Feature",
      "properties": {
        "NumSum": 1,
        "City": "Denver",
        "State": "CO"
      },
      "geometry": {
        "type": "Point",
        "coordinates": [
          -104.9902,
          39.7392
        ]
      }
    },
    {
      "type": "Feature",
      "properties": {
        "NumSum": 2,
        "City": "Des Plaines",
        "State": "IL"
      },
      "geometry": {
        "type": "Point",
        "coordinates": [
          -87.8833,
          42.0333
        ]
      }
    },
    {
      "type": "Feature",
      "properties": {
        "NumSum": 3,
        "City": "Detroit Lakes",
        "State": "MN"
      },
      "geometry": {
        "type": "Point",
        "coordinates": [
          -95.8453,
          46.8172
        ]
      }
    },
    {
      "type": "Feature",
      "properties": {
        "NumSum": 1,
        "City": "Dickinson",
        "State": "ND"
      },
      "geometry": {
        "type": "Point",
        "coordinates": [
          -102.7896,
          46.8791
        ]
      }
    },
    {
      "type": "Feature",
      "properties": {
        "NumSum": 46,
        "City": "Duluth",
        "State": "MN"
      },
      "geometry": {
        "type": "Point",
        "coordinates": [
          -92.1066,
          46.7833
        ]
      }
    },
    {
      "type": "Feature",
      "properties": {
        "NumSum": 13,
        "City": "Eagan",
        "State": "MN"
      },
      "geometry": {
        "type": "Point",
        "coordinates": [
          -93.1669,
          44.8041
        ]
      }
    },
    {
      "type": "Feature",
      "properties": {
        "NumSum": 9,
        "City": "Eden Prairie",
        "State": "MN"
      },
      "geometry": {
        "type": "Point",
        "coordinates": [
          -93.4708,
          44.8547
        ]
      }
    },
    {
      "type": "Feature",
      "properties": {
        "NumSum": 3,
        "City": "Edina",
        "State": "MN"
      },
      "geometry": {
        "type": "Point",
        "coordinates": [
          -93.3499,
          44.8897
        ]
      }
    },
    {
      "type": "Feature",
      "properties": {
        "NumSum": 3,
        "City": "Elk River",
        "State": "MN"
      },
      "geometry": {
        "type": "Point",
        "coordinates": [
          -93.5672,
          45.3039
        ]
      }
    },
    {
      "type": "Feature",
      "properties": {
        "NumSum": 1,
        "City": "Elkhart Lake",
        "State": "WI"
      },
      "geometry": {
        "type": "Point",
        "coordinates": [
          -88.0178,
          43.8333
        ]
      }
    },
    {
      "type": "Feature",
      "properties": {
        "NumSum": 1,
        "City": "Esko",
        "State": "MN"
      },
      "geometry": {
        "type": "Point",
        "coordinates": [
          -92.3632,
          46.7058
        ]
      }
    },
    {
      "type": "Feature",
      "properties": {
        "NumSum": 1,
        "City": "Eveleth",
        "State": "MN"
      },
      "geometry": {
        "type": "Point",
        "coordinates": [
          -92.5399,
          47.4624
        ]
      }
    },
    {
      "type": "Feature",
      "properties": {
        "NumSum": 7,
        "City": "Fargo",
        "State": "ND"
      },
      "geometry": {
        "type": "Point",
        "coordinates": [
          -96.7898,
          46.8771
        ]
      }
    },
    {
      "type": "Feature",
      "properties": {
        "NumSum": 4,
        "City": "Faribault",
        "State": "MN"
      },
      "geometry": {
        "type": "Point",
        "coordinates": [
          -93.2688,
          44.295
        ]
      }
    },
    {
      "type": "Feature",
      "properties": {
        "NumSum": 1,
        "City": "Farmington",
        "State": "MN"
      },
      "geometry": {
        "type": "Point",
        "coordinates": [
          -93.1435,
          44.6402
        ]
      }
    },
    {
      "type": "Feature",
      "properties": {
        "NumSum": 3,
        "City": "Fergus Falls",
        "State": "MN"
      },
      "geometry": {
        "type": "Point",
        "coordinates": [
          -96.0776,
          46.283
        ]
      }
    },
    {
      "type": "Feature",
      "properties": {
        "NumSum": 1,
        "City": "Fishers",
        "State": "IN"
      },
      "geometry": {
        "type": "Point",
        "coordinates": [
          -86.0133,
          39.9567
        ]
      }
    },
    {
      "type": "Feature",
      "properties": {
        "NumSum": 1,
        "City": "Foley",
        "State": "MN"
      },
      "geometry": {
        "type": "Point",
        "coordinates": [
          -93.9097,
          45.6647
        ]
      }
    },
    {
      "type": "Feature",
      "properties": {
        "NumSum": 1,
        "City": "Forest Lake",
        "State": "MN"
      },
      "geometry": {
        "type": "Point",
        "coordinates": [
          -92.9852,
          45.2789
        ]
      }
    },
    {
      "type": "Feature",
      "properties": {
        "NumSum": 3,
        "City": "Fort Snelling",
        "State": "MN"
      },
      "geometry": {
        "type": "Point",
        "coordinates": [
          -93.1961,
          44.893
        ]
      }
    },
    {
      "type": "Feature",
      "properties": {
        "NumSum": 1,
        "City": "Glenburn",
        "State": "ME"
      },
      "geometry": {
        "type": "Point",
        "coordinates": [
          -68.8457,
          44.9168
        ]
      }
    },
    {
      "type": "Feature",
      "properties": {
        "NumSum": 3,
        "City": "Golden Valley",
        "State": "MN"
      },
      "geometry": {
        "type": "Point",
        "coordinates": [
          -93.3491,
          45.0097
        ]
      }
    },
    {
      "type": "Feature",
      "properties": {
        "NumSum": 4,
        "City": "Grand Forks",
        "State": "ND"
      },
      "geometry": {
        "type": "Point",
        "coordinates": [
          -97.0328,
          47.9252
        ]
      }
    },
    {
      "type": "Feature",
      "properties": {
        "NumSum": 3,
        "City": "Grand Marais",
        "State": "MN"
      },
      "geometry": {
        "type": "Point",
        "coordinates": [
          -90.3343,
          47.7504
        ]
      }
    },
    {
      "type": "Feature",
      "properties": {
        "NumSum": 19,
        "City": "Grand Rapids",
        "State": "MN"
      },
      "geometry": {
        "type": "Point",
        "coordinates": [
          -93.5302,
          47.2372
        ]
      }
    },
    {
      "type": "Feature",
      "properties": {
        "NumSum": 2,
        "City": "Grimes",
        "State": "IA"
      },
      "geometry": {
        "type": "Point",
        "coordinates": [
          -93.7925,
          41.6883
        ]
      }
    },
    {
      "type": "Feature",
      "properties": {
        "NumSum": 1,
        "City": "Harrisburg",
        "State": "PA"
      },
      "geometry": {
        "type": "Point",
        "coordinates": [
          -76.8867,
          40.2731
        ]
      }
    },
    {
      "type": "Feature",
      "properties": {
        "NumSum": 1,
        "City": "Hastings",
        "State": "MN"
      },
      "geometry": {
        "type": "Point",
        "coordinates": [
          -92.8524,
          44.7433
        ]
      }
    },
    {
      "type": "Feature",
      "properties": {
        "NumSum": 2,
        "City": "Hibbing",
        "State": "MN"
      },
      "geometry": {
        "type": "Point",
        "coordinates": [
          -92.9377,
          47.4272
        ]
      }
    },
    {
      "type": "Feature",
      "properties": {
        "NumSum": 1,
        "City": "Holmen",
        "State": "WI"
      },
      "geometry": {
        "type": "Point",
        "coordinates": [
          -91.2562,
          43.9632
        ]
      }
    },
    {
      "type": "Feature",
      "properties": {
        "NumSum": 1,
        "City": "Hopkins",
        "State": "MN"
      },
      "geometry": {
        "type": "Point",
        "coordinates": [
          -93.4627,
          44.925
        ]
      }
    },
    {
      "type": "Feature",
      "properties": {
        "NumSum": 1,
        "City": "Hugo",
        "State": "MN"
      },
      "geometry": {
        "type": "Point",
        "coordinates": [
          -92.9933,
          45.16
        ]
      }
    },
    {
      "type": "Feature",
      "properties": {
        "NumSum": 3,
        "City": "Hutchinson",
        "State": "MN"
      },
      "geometry": {
        "type": "Point",
        "coordinates": [
          -94.3697,
          44.8877
        ]
      }
    },
    {
      "type": "Feature",
      "properties": {
        "NumSum": 1,
        "City": "International Falls",
        "State": "MN"
      },
      "geometry": {
        "type": "Point",
        "coordinates": [
          -93.411,
          48.601
        ]
      }
    },
    {
      "type": "Feature",
      "properties": {
        "NumSum": 1,
        "City": "Jackson",
        "State": "MN"
      },
      "geometry": {
        "type": "Point",
        "coordinates": [
          -94.9886,
          43.6208
        ]
      }
    },
    {
      "type": "Feature",
      "properties": {
        "NumSum": 1,
        "City": "Jordan",
        "State": "MN"
      },
      "geometry": {
        "type": "Point",
        "coordinates": [
          -93.6269,
          44.6669
        ]
      }
    },
    {
      "type": "Feature",
      "properties": {
        "NumSum": 1,
        "City": "Lake City",
        "State": "MN"
      },
      "geometry": {
        "type": "Point",
        "coordinates": [
          -92.2668,
          44.4494
        ]
      }
    },
    {
      "type": "Feature",
      "properties": {
        "NumSum": 2,
        "City": "Lakeville",
        "State": "MN"
      },
      "geometry": {
        "type": "Point",
        "coordinates": [
          -93.2427,
          44.6497
        ]
      }
    },
    {
      "type": "Feature",
      "properties": {
        "NumSum": 2,
        "City": "Le Center",
        "State": "MN"
      },
      "geometry": {
        "type": "Point",
        "coordinates": [
          -93.7302,
          44.3894
        ]
      }
    },
    {
      "type": "Feature",
      "properties": {
        "NumSum": 1,
        "City": "Little Canada",
        "State": "MN"
      },
      "geometry": {
        "type": "Point",
        "coordinates": [
          -93.0877,
          45.0269
        ]
      }
    },
    {
      "type": "Feature",
      "properties": {
        "NumSum": 4,
        "City": "Little Falls",
        "State": "MN"
      },
      "geometry": {
        "type": "Point",
        "coordinates": [
          -94.3625,
          45.9764
        ]
      }
    },
    {
      "type": "Feature",
      "properties": {
        "NumSum": 2,
        "City": "Long Prairie",
        "State": "MN"
      },
      "geometry": {
        "type": "Point",
        "coordinates": [
          -94.8656,
          45.9747
        ]
      }
    },
    {
      "type": "Feature",
      "properties": {
        "NumSum": 1,
        "City": "Lutsen",
        "State": "MN"
      },
      "geometry": {
        "type": "Point",
        "coordinates": [
          -90.6749,
          47.6471
        ]
      }
    },
    {
      "type": "Feature",
      "properties": {
        "NumSum": 7,
        "City": "Madison",
        "State": "WI"
      },
      "geometry": {
        "type": "Point",
        "coordinates": [
          -89.4012,
          43.0730
        ]
      }
    },
    {
      "type": "Feature",
      "properties": {
        "NumSum": 13,
        "City": "Mankato",
        "State": "MN"
      },
      "geometry": {
        "type": "Point",
        "coordinates": [
          -93.9994,
          44.1636
        ]
      }
    },
    {
      "type": "Feature",
      "properties": {
        "NumSum": 1,
        "City": "Mantorville",
        "State": "MN"
      },
      "geometry": {
        "type": "Point",
        "coordinates": [
          -92.7557,
          44.0691
        ]
      }
    },
    {
      "type": "Feature",
      "properties": {
        "NumSum": 10,
        "City": "Maple Grove",
        "State": "MN"
      },
      "geometry": {
        "type": "Point",
        "coordinates": [
          -93.4558,
          45.0725
        ]
      }
    },
    {
      "type": "Feature",
      "properties": {
        "NumSum": 2,
        "City": "Maplewood",
        "State": "MN"
      },
      "geometry": {
        "type": "Point",
        "coordinates": [
          -92.9952,
          44.953
        ]
      }
    },
    {
      "type": "Feature",
      "properties": {
        "NumSum": 3,
        "City": "Marshall",
        "State": "MN"
      },
      "geometry": {
        "type": "Point",
        "coordinates": [
          -95.7884,
          44.4469
        ]
      }
    },
    {
      "type": "Feature",
      "properties": {
        "NumSum": 1,
        "City": "McGregor",
        "State": "MN"
      },
      "geometry": {
        "type": "Point",
        "coordinates": [
          -93.3138,
          46.6066
        ]
      }
    },
    {
      "type": "Feature",
      "properties": {
        "NumSum": 6,
        "City": "Medina",
        "State": "MN"
      },
      "geometry": {
        "type": "Point",
        "coordinates": [
          -93.5825,
          45.0352
        ]
      }
    },
    {
      "type": "Feature",
      "properties": {
        "NumSum": 1,
        "City": "Mendota Heights",
        "State": "MN"
      },
      "geometry": {
        "type": "Point",
        "coordinates": [
          -93.1383,
          44.8836
        ]
      }
    },
    {
      "type": "Feature",
      "properties": {
        "NumSum": 1,
        "City": "Mentor",
        "State": "MN"
      },
      "geometry": {
        "type": "Point",
        "coordinates": [
          -96.1412,
          47.6983
        ]
      }
    },
    {
      "type": "Feature",
      "properties": {
        "NumSum": 31,
        "City": "Minneapolis",
        "State": "MN"
      },
      "geometry": {
        "type": "Point",
        "coordinates": [
          -93.2638,
          44.98
        ]
      }
    },
    {
      "type": "Feature",
      "properties": {
        "NumSum": 1,
        "City": "Minot",
        "State": "ND"
      },
      "geometry": {
        "type": "Point",
        "coordinates": [
          -101.2922,
          48.2329
        ]
      }
    },
    {
      "type": "Feature",
      "properties": {
        "NumSum": 4,
        "City": "Moorhead",
        "State": "MN"
      },
      "geometry": {
        "type": "Point",
        "coordinates": [
          -96.7676,
          46.8739
        ]
      }
    },
    {
      "type": "Feature",
      "properties": {
        "NumSum": 2,
        "City": "Moose Lake",
        "State": "MN"
      },
      "geometry": {
        "type": "Point",
        "coordinates": [
          -92.7619,
          46.4541
        ]
      }
    },
    {
      "type": "Feature",
      "properties": {
        "NumSum": 3,
        "City": "Mounds View",
        "State": "MN"
      },
      "geometry": {
        "type": "Point",
        "coordinates": [
          -93.2086,
          45.105
        ]
      }
    },
    {
      "type": "Feature",
      "properties": {
        "NumSum": 2,
        "City": "New Ulm",
        "State": "MN"
      },
      "geometry": {
        "type": "Point",
        "coordinates": [
          -94.4605,
		  44.3125
        ]
      }
    },
    {
      "type": "Feature",
      "properties": {
        "NumSum": 1,
        "City": "Norcross",
        "State": "GA"
      },
      "geometry": {
        "type": "Point",
        "coordinates": [
          -84.2135,
		  33.9412
        ]
      }
    },
    {
      "type": "Feature",
      "properties": {
        "NumSum": 1,
        "City": "North Mankato",
        "State": "MN"
      },
      "geometry": {
        "type": "Point",
        "coordinates": [
          -94.0338,
          44.1733
        ]
      }
    },
    {
      "type": "Feature",
      "properties": {
        "NumSum": 1,
        "City": "Northfield",
        "State": "MN"
      },
      "geometry": {
        "type": "Point",
        "coordinates": [
          -93.1616,
          44.4583
        ]
      }
    },
    {
      "type": "Feature",
      "properties": {
        "NumSum": 1,
        "City": "Osceola",
        "State": "WI"
      },
      "geometry": {
        "type": "Point",
        "coordinates": [
          -92.7049,
          45.3205
        ]
      }
    },
    {
      "type": "Feature",
      "properties": {
        "NumSum": 1,
        "City": "Owatonna",
        "State": "MN"
      },
      "geometry": {
        "type": "Point",
        "coordinates": [
          -93.226,
          44.0839
        ]
      }
    },
    {
      "type": "Feature",
      "properties": {
        "NumSum": 1,
        "City": "Park Rapids",
        "State": "MN"
      },
      "geometry": {
        "type": "Point",
        "coordinates": [
          -95.0586,
          46.9222
        ]
      }
    },
    {
      "type": "Feature",
      "properties": {
        "NumSum": 1,
        "City": "Pine Island",
        "State": "MN"
      },
      "geometry": {
        "type": "Point",
        "coordinates": [
          -92.6463,
          44.2014
        ]
      }
    },
    {
      "type": "Feature",
      "properties": {
        "NumSum": 3,
        "City": "Plymouth",
        "State": "MN"
      },
      "geometry": {
        "type": "Point",
        "coordinates": [
          -93.4555,
          45.0105
        ]
      }
    },
    {
      "type": "Feature",
      "properties": {
        "NumSum": 1,
        "City": "Preston",
        "State": "MN"
      },
      "geometry": {
        "type": "Point",
        "coordinates": [
          -92.0832,
          43.6702
        ]
      }
    },
    {
      "type": "Feature",
      "properties": {
        "NumSum": 1,
        "City": "Princeton",
        "State": "MN"
      },
      "geometry": {
        "type": "Point",
        "coordinates": [
          -93.5816,
          45.57
        ]
      }
    },
    {
      "type": "Feature",
      "properties": {
        "NumSum": 1,
        "City": "Prior Lake",
        "State": "MN"
      },
      "geometry": {
        "type": "Point",
        "coordinates": [
          -93.4227,
          44.7133
        ]
      }
    },
    {
      "type": "Feature",
      "properties": {
        "NumSum": 1,
        "City": "Ramsey",
        "State": "MN"
      },
      "geometry": {
        "type": "Point",
        "coordinates": [
          -93.4522,
          45.2461
        ]
      }
    },
    {
      "type": "Feature",
      "properties": {
        "NumSum": 1,
        "City": "Rapid City",
        "State": "SD"
      },
      "geometry": {
        "type": "Point",
        "coordinates": [
          -103.2310,
          44.0805
        ]
      }
    },
    {
      "type": "Feature",
      "properties": {
        "NumSum": 3,
        "City": "Red Wing",
        "State": "MN"
      },
      "geometry": {
        "type": "Point",
        "coordinates": [
          -92.5338,
          44.5625
        ]
      }
    },
    {
      "type": "Feature",
      "properties": {
        "NumSum": 1,
        "City": "Redwood Falls",
        "State": "MN"
      },
      "geometry": {
        "type": "Point",
        "coordinates": [
          -95.1169,
          44.5394
        ]
      }
    },
    {
      "type": "Feature",
      "properties": {
        "NumSum": 1,
        "City": "Rice Lake",
        "State": "WI"
      },
      "geometry": {
        "type": "Point",
        "coordinates": [
          -91.7382,
          45.5060
        ]
      }
    },
    {
      "type": "Feature",
      "properties": {
        "NumSum": 1,
        "City": "Richfield",
        "State": "MN"
      },
      "geometry": {
        "type": "Point",
        "coordinates": [
          -93.283,
          44.8833
        ]
      }
    },
    {
      "type": "Feature",
      "properties": {
        "NumSum": 1,
        "City": "Richmond",
        "State": "TX"
      },
      "geometry": {
        "type": "Point",
        "coordinates": [
          -95.7607,
          29.5821
        ]
      }
    },
    {
      "type": "Feature",
      "properties": {
        "NumSum": 1,
        "City": "River Falls",
        "State": "WI"
      },
      "geometry": {
        "type": "Point",
        "coordinates": [
          -92.6238,
          44.8613
        ]
      }
    },
    {
      "type": "Feature",
      "properties": {
        "NumSum": 6,
        "City": "Rochester",
        "State": "MN"
      },
      "geometry": {
        "type": "Point",
        "coordinates": [
          -92.4699,
          44.0216
        ]
      }
    },
    {
      "type": "Feature",
      "properties": {
        "NumSum": 1,
        "City": "Rosemount",
        "State": "MN"
      },
      "geometry": {
        "type": "Point",
        "coordinates": [
          -93.1258,
          44.7394
        ]
      }
    },
    {
      "type": "Feature",
      "properties": {
        "NumSum": 9,
        "City": "Roseville",
        "State": "MN"
      },
      "geometry": {
        "type": "Point",
        "coordinates": [
          -93.1566,
          45.0061
        ]
      }
    },
    {
      "type": "Feature",
      "properties": {
        "NumSum": 1,
        "City": "Saginaw",
        "State": "MN"
      },
      "geometry": {
        "type": "Point",
        "coordinates": [
          -92.4444,
          46.8591
        ]
      }
    },
    {
      "type": "Feature",
      "properties": {
        "NumSum": 4,
        "City": "Saint Cloud",
        "State": "MN"
      },
      "geometry": {
        "type": "Point",
        "coordinates": [
          -94.1625,
          45.5608
        ]
      }
    },
    {
      "type": "Feature",
      "properties": {
        "NumSum": 107,
        "City": "Saint Paul",
        "State": "MN"
      },
      "geometry": {
        "type": "Point",
        "coordinates": [
          -93.0933,
          44.9444
        ]
      }
    },
    {
      "type": "Feature",
      "properties": {
        "NumSum": 1,
        "City": "Sauk Rapids",
        "State": "MN"
      },
      "geometry": {
        "type": "Point",
        "coordinates": [
          -94.1661,
          45.5919
        ]
      }
    },
    {
      "type": "Feature",
      "properties": {
        "NumSum": 1,
        "City": "Savage",
        "State": "MN"
      },
      "geometry": {
        "type": "Point",
        "coordinates": [
          -93.3363,
          44.7791
        ]
      }
    },
    {
      "type": "Feature",
      "properties": {
        "NumSum": 6,
        "City": "Shakopee",
        "State": "MN"
      },
      "geometry": {
        "type": "Point",
        "coordinates": [
          -93.5269,
          44.798
        ]
      }
    },
    {
      "type": "Feature",
      "properties": {
        "NumSum": 1,
        "City": "St. Charles",
        "State": "IL"
      },
      "geometry": {
        "type": "Point",
        "coordinates": [
          -88.3086,
          41.9141
        ]
      }
    },
    {
      "type": "Feature",
      "properties": {
        "NumSum": 1,
        "City": "St. Charles",
        "State": "MO"
      },
      "geometry": {
        "type": "Point",
        "coordinates": [
          -90.4974,
          38.7881
        ]
      }
    },
    {
      "type": "Feature",
      "properties": {
        "NumSum": 1,
        "City": "St. Louis Park",
        "State": "MN"
      },
      "geometry": {
        "type": "Point",
        "coordinates": [
          -93.348,
          44.9483
        ]
      }
    },
    {
      "type": "Feature",
      "properties": {
        "NumSum": 1,
        "City": "St. Peter",
        "State": "MN"
      },
      "geometry": {
        "type": "Point",
        "coordinates": [
          -93.958,
          44.3236
        ]
      }
    },
    {
      "type": "Feature",
      "properties": {
        "NumSum": 2,
        "City": "Stillwater",
        "State": "MN"
      },
      "geometry": {
        "type": "Point",
        "coordinates": [
          -92.806,
          45.0564
        ]
      }
    },
    {
      "type": "Feature",
      "properties": {
        "NumSum": 1,
        "City": "Sun Prairie",
        "State": "WI"
      },
      "geometry": {
        "type": "Point",
        "coordinates": [
          -89.2137,
          43.1836
        ]
      }
    },
    {
      "type": "Feature",
      "properties": {
        "NumSum": 6,
        "City": "Superior",
        "State": "WI"
      },
      "geometry": {
        "type": "Point",
        "coordinates": [
          -92.1040,
          46.7207
        ]
      }
    },
    {
      "type": "Feature",
      "properties": {
        "NumSum": 1,
        "City": "Thief River Falls",
        "State": "MN"
      },
      "geometry": {
        "type": "Point",
        "coordinates": [
          -96.1811,
          48.1191
        ]
      }
    },
    {
      "type": "Feature",
      "properties": {
        "NumSum": 5,
        "City": "Two Harbors",
        "State": "MN"
      },
      "geometry": {
        "type": "Point",
        "coordinates": [
          -91.6707,
          47.0227
        ]
      }
    },
    {
      "type": "Feature",
      "properties": {
        "NumSum": 2,
        "City": "Victoria",
        "State": "Canada"
      },
      "geometry": {
        "type": "Point",
        "coordinates": [
          -123.3656,
          48.4284
        ]
      }
    },
    {
      "type": "Feature",
      "properties": {
        "NumSum": 1,
        "City": "Virginia",
        "State": "MN"
      },
      "geometry": {
        "type": "Point",
        "coordinates": [
          -92.5366,
          47.5233
        ]
      }
    },
    {
      "type": "Feature",
      "properties": {
        "NumSum": 1,
        "City": "Wabasha",
        "State": "MN"
      },
      "geometry": {
        "type": "Point",
        "coordinates": [
          -92.0329,
          44.3839
        ]
      }
    },
    {
      "type": "Feature",
      "properties": {
        "NumSum": 1,
        "City": "Wabasso",
        "State": "MN"
      },
      "geometry": {
        "type": "Point",
        "coordinates": [
          -95.2558,
          44.4019
        ]
      }
    },
    {
      "type": "Feature",
      "properties": {
        "NumSum": 1,
        "City": "Waite Park",
        "State": "MN"
      },
      "geometry": {
        "type": "Point",
        "coordinates": [
          -94.2242,
          45.5572
        ]
      }
    },
    {
      "type": "Feature",
      "properties": {
        "NumSum": 6,
        "City": "Walker",
        "State": "MN"
      },
      "geometry": {
        "type": "Point",
        "coordinates": [
          -94.5872,
          47.1013
        ]
      }
    },
    {
      "type": "Feature",
      "properties": {
        "NumSum": 1,
        "City": "Waseca",
        "State": "MN"
      },
      "geometry": {
        "type": "Point",
        "coordinates": [
          -93.5074,
          44.0777
        ]
      }
    },
    {
      "type": "Feature",
      "properties": {
        "NumSum": 1,
        "City": "Welch",
        "State": "MN"
      },
      "geometry": {
        "type": "Point",
        "coordinates": [
          -92.7385,
          44.5683
        ]
      }
    },
    {
      "type": "Feature",
      "properties": {
        "NumSum": 1,
        "City": "West Fargo",
        "State": "ND"
      },
      "geometry": {
        "type": "Point",
        "coordinates": [
          -96.8999,
          46.8769
        ]
      }
    },
    {
      "type": "Feature",
      "properties": {
        "NumSum": 1,
        "City": "West Saint Paul",
        "State": "MN"
      },
      "geometry": {
        "type": "Point",
        "coordinates": [
          -93.1016,
          44.9161
        ]
      }
    },
    {
      "type": "Feature",
      "properties": {
        "NumSum": 1,
        "City": "West Suffield",
        "State": "CT"
      },
      "geometry": {
        "type": "Point",
        "coordinates": [
          -72.7466,
          42.0185
        ]
      }
    },
    {
      "type": "Feature",
      "properties": {
        "NumSum": 1,
        "City": "Wilton",
        "State": "WI"
      },
      "geometry": {
        "type": "Point",
        "coordinates": [
          -90.5279,
          43.8135
        ]
      }
    },
    {
      "type": "Feature",
      "properties": {
        "NumSum": 6,
        "City": "Winona",
        "State": "MN"
      },
      "geometry": {
        "type": "Point",
        "coordinates": [
          -91.6393,
          44.05
        ]
      }
    }
  ]
}